[
  {
    "name": "세종특별자치시",
    "code": "5690000",
    "lat": 36.50462605999999,
    "lng": 127.26850240000005
  },
  {
    "name": "강원강릉시",
    "code": "4201000",
    "lat": 37.76930606279998,
    "lng": 128.893939599
  },
  {
    "name": "강원고성군",
    "code": "4341000",
    "lat": 38.375479414,
    "lng": 128.48243307100003
  },
  {
    "name": "강원동해시",
    "code": "4211000",
    "lat": 37.51119260300001,
    "lng": 129.0729474329999
  },
  {
    "name": "강원삼척시",
    "code": "4241000",
    "lat": 37.339932542700005,
    "lng": 129.17270803300002
  },
  {
    "name": "강원속초시",
    "code": "4231000",
    "lat": 38.19881645348837,
    "lng": 128.57430756976748
  },
  {
    "name": "강원양구군",
    "code": "4321000",
    "lat": 38.1484837486,
    "lng": 128.017486272
  },
  {
    "name": "강원양양군",
    "code": "4351000",
    "lat": 38.03878300000001,
    "lng": 128.65176128
  },
  {
    "name": "강원영월군",
    "code": "4271000",
    "lat": 37.19367314999999,
    "lng": 128.46630085
  },
  {
    "name": "강원원주시",
    "code": "4191000",
    "lat": 37.348589609200005,
    "lng": 127.91712447300006
  },
  {
    "name": "강원인제군",
    "code": "4331000",
    "lat": 38.05553100000001,
    "lng": 128.20882966309523
  },
  {
    "name": "강원정선군",
    "code": "4291000",
    "lat": 37.35605130000001,
    "lng": 128.72062845
  },
  {
    "name": "강원철원군",
    "code": "4301000",
    "lat": 38.20575225234307,
    "lng": 127.31566703688208
  },
  {
    "name": "강원춘천시",
    "code": "4181000",
    "lat": 37.873183329999996,
    "lng": 127.73852189000003
  },
  {
    "name": "강원태백시",
    "code": "4221000",
    "lat": 37.151556073737346,
    "lng": 128.98853097575756
  },
  {
    "name": "강원평창군",
    "code": "4281000",
    "lat": 37.46990462659999,
    "lng": 128.437433425
  },
  {
    "name": "강원홍천군",
    "code": "4251000",
    "lat": 37.71270492999999,
    "lng": 127.94366241
  },
  {
    "name": "강원화천군",
    "code": "4311000",
    "lat": 38.11182688861927,
    "lng": 127.68118602849395
  },
  {
    "name": "강원횡성군",
    "code": "4261000",
    "lat": 37.503521218,
    "lng": 128.02014849299994
  },
  {
    "name": "경기가평군",
    "code": "4160000",
    "lat": 37.78722718,
    "lng": 127.46252376000001
  },
  {
    "name": "경기고양시",
    "code": "3940000",
    "lat": 37.65743105399998,
    "lng": 126.81177700900005
  },
  {
    "name": "경기과천시",
    "code": "3970000",
    "lat": 37.429697527777776,
    "lng": 126.99133548611108
  },
  {
    "name": "경기광명시",
    "code": "3900000",
    "lat": 37.460730597499996,
    "lng": 126.87078758499996
  },
  {
    "name": "경기광주시",
    "code": "5540000",
    "lat": 37.39495051399997,
    "lng": 127.26565811300003
  },
  {
    "name": "경기구리시",
    "code": "3980000",
    "lat": 37.60208730039999,
    "lng": 127.13867020199996
  },
  {
    "name": "경기군포시",
    "code": "4020000",
    "lat": 37.35028601800002,
    "lng": 126.93291273899996
  },
  {
    "name": "경기김포시",
    "code": "4090000",
    "lat": 37.651666798161216,
    "lng": 126.66288162167199
  },
  {
    "name": "경기남양주시",
    "code": "3990000",
    "lat": 37.60317817966792,
    "lng": 127.20647237413101
  },
  {
    "name": "경기동두천시",
    "code": "3920000",
    "lat": 37.9043411353,
    "lng": 127.057916669
  },
  {
    "name": "경기부천시",
    "code": "3860000",
    "lat": 37.480215528801764,
    "lng": 126.79560980139196
  },
  {
    "name": "경기성남시",
    "code": "3780000",
    "lat": 37.40292883999999,
    "lng": 127.13232360000003
  },
  {
    "name": "경기수원시",
    "code": "3740000",
    "lat": 37.27083825110001,
    "lng": 127.01393427900003
  },
  {
    "name": "경기시흥시",
    "code": "4010000",
    "lat": 37.3898115299,
    "lng": 126.7840435289999
  },
  {
    "name": "경기안산시",
    "code": "3930000",
    "lat": 37.31232558585858,
    "lng": 126.8289715555555
  },
  {
    "name": "경기안성시",
    "code": "4080000",
    "lat": 37.019345595999994,
    "lng": 127.27732380400002
  },
  {
    "name": "경기안양시",
    "code": "3830000",
    "lat": 37.38854086000002,
    "lng": 126.94368103999999
  },
  {
    "name": "경기양주시",
    "code": "5590000",
    "lat": 37.817934155799996,
    "lng": 127.04497244099997
  },
  {
    "name": "경기양평군",
    "code": "4170000",
    "lat": 37.43012976760002,
    "lng": 127.41851318700009
  },
  {
    "name": "경기여주시",
    "code": "5700000",
    "lat": 37.28399322309999,
    "lng": 127.63382481500004
  },
  {
    "name": "경기연천군",
    "code": "4140000",
    "lat": 38.05174828534935,
    "lng": 127.045386808428
  },
  {
    "name": "경기오산시",
    "code": "4000000",
    "lat": 37.159202608699985,
    "lng": 127.06105780800006
  },
  {
    "name": "경기용인시",
    "code": "4050000",
    "lat": 37.22690020299997,
    "lng": 127.14014274199997
  },
  {
    "name": "경기의왕시",
    "code": "4030000",
    "lat": 37.34479999999995,
    "lng": 126.96819999999981
  },
  {
    "name": "경기의정부시",
    "code": "3820000",
    "lat": 37.74086097802246,
    "lng": 127.05105170664696
  },
  {
    "name": "경기이천시",
    "code": "4070000",
    "lat": 37.24253644330002,
    "lng": 127.468386971
  },
  {
    "name": "경기파주시",
    "code": "4060000",
    "lat": 37.76498326440001,
    "lng": 126.76321055199996
  },
  {
    "name": "경기평택시",
    "code": "3910000",
    "lat": 37.01018272999999,
    "lng": 127.03016045999992
  },
  {
    "name": "경기포천시",
    "code": "5600000",
    "lat": 37.9108269869,
    "lng": 127.20823028600003
  },
  {
    "name": "경기하남시",
    "code": "4040000",
    "lat": 37.54137228300003,
    "lng": 127.20099998999996
  },
  {
    "name": "경기화성시",
    "code": "5530000",
    "lat": 37.175975439999995,
    "lng": 126.91233905999994
  },
  {
    "name": "경남거제시",
    "code": "5370000",
    "lat": 34.868283809999994,
    "lng": 128.64426756999998
  },
  {
    "name": "경남고성군",
    "code": "5420000",
    "lat": 35.00853333333332,
    "lng": 128.30420574712647
  },
  {
    "name": "경남김해시",
    "code": "5350000",
    "lat": 35.23130302999999,
    "lng": 128.85680736000003
  },
  {
    "name": "경남남해군",
    "code": "5430000",
    "lat": 34.81764164000001,
    "lng": 127.94291426
  },
  {
    "name": "경남밀양시",
    "code": "5360000",
    "lat": 35.48576631459997,
    "lng": 128.7574187890001
  },
  {
    "name": "경남사천시",
    "code": "5340000",
    "lat": 35.01857202089998,
    "lng": 128.04651105599996
  },
  {
    "name": "경남산청군",
    "code": "5450000",
    "lat": 35.29888184339999,
    "lng": 127.71705977400005
  },
  {
    "name": "경남양산시",
    "code": "5380000",
    "lat": 35.36323999999998,
    "lng": 129.04497
  },
  {
    "name": "경남의령군",
    "code": "5390000",
    "lat": 35.360377531571416,
    "lng": 128.2704724085714
  },
  {
    "name": "경남진주시",
    "code": "5310000",
    "lat": 35.184273046,
    "lng": 128.111002658
  },
  {
    "name": "경남창녕군",
    "code": "5410000",
    "lat": 35.52497169430003,
    "lng": 128.47656876900018
  },
  {
    "name": "경남창원시",
    "code": "5670000",
    "lat": 35.238856188100016,
    "lng": 128.6612819900001
  },
  {
    "name": "경남통영시",
    "code": "5330000",
    "lat": 34.842177726542,
    "lng": 128.40808295207498
  },
  {
    "name": "경남하동군",
    "code": "5440000",
    "lat": 35.116333562,
    "lng": 127.79100449999999
  },
  {
    "name": "경남함안군",
    "code": "5400000",
    "lat": 35.26126525000001,
    "lng": 128.38813720000002
  },
  {
    "name": "경남함양군",
    "code": "5460000",
    "lat": 35.546394907976186,
    "lng": 127.73079256785716
  },
  {
    "name": "경남합천군",
    "code": "5480000",
    "lat": 35.51148553700002,
    "lng": 128.166061427
  },
  {
    "name": "경북경산시",
    "code": "5130000",
    "lat": 35.84918926912282,
    "lng": 128.77340325263157
  },
  {
    "name": "경북경주시",
    "code": "5050000",
    "lat": 35.799699442400026,
    "lng": 129.28494761500005
  },
  {
    "name": "경북고령군",
    "code": "5200000",
    "lat": 35.73141542410001,
    "lng": 128.29360658299998
  },
  {
    "name": "경북구미시",
    "code": "5080000",
    "lat": 36.31101605320001,
    "lng": 128.27470038800004
  },
  {
    "name": "경북김천시",
    "code": "5060000",
    "lat": 36.12370999999999,
    "lng": 128.10431
  },
  {
    "name": "경북문경시",
    "code": "5120000",
    "lat": 36.63522393579999,
    "lng": 128.16706649000002
  },
  {
    "name": "경북봉화군",
    "code": "5240000",
    "lat": 36.90615807074074,
    "lng": 128.83180146296294
  },
  {
    "name": "경북상주시",
    "code": "5110000",
    "lat": 36.42884848699998,
    "lng": 128.12312993900002
  },
  {
    "name": "경북성주군",
    "code": "5210000",
    "lat": 35.874274282799966,
    "lng": 128.2994144600001
  },
  {
    "name": "경북안동시",
    "code": "5070000",
    "lat": 36.57455999000001,
    "lng": 128.72534471
  },
  {
    "name": "경북영덕군",
    "code": "5180000",
    "lat": 36.43693335819871,
    "lng": 129.38334679369612
  },
  {
    "name": "경북영양군",
    "code": "5170000",
    "lat": 36.66369134625001,
    "lng": 129.12615246000001
  },
  {
    "name": "경북영주시",
    "code": "5090000",
    "lat": 36.86175634099999,
    "lng": 128.60158604100005
  },
  {
    "name": "경북영천시",
    "code": "5100000",
    "lat": 35.8328020764,
    "lng": 128.77922948900002
  },
  {
    "name": "경북예천군",
    "code": "5230000",
    "lat": 36.64005222902101,
    "lng": 128.42097337758202
  },
  {
    "name": "경북울릉군",
    "code": "5260000",
    "lat": 37.495545807692295,
    "lng": 130.88253835769225
  },
  {
    "name": "경북울진군",
    "code": "5250000",
    "lat": 36.912103266197185,
    "lng": 129.40479445070423
  },
  {
    "name": "경북의성군",
    "code": "5150000",
    "lat": 36.356215069499996,
    "lng": 128.61775893299992
  },
  {
    "name": "경북청도군",
    "code": "5190000",
    "lat": 35.66702248661016,
    "lng": 128.73288222203385
  },
  {
    "name": "경북청송군",
    "code": "5160000",
    "lat": 36.368123646499996,
    "lng": 129.047454282
  },
  {
    "name": "경북칠곡군",
    "code": "5220000",
    "lat": 36.04608263414634,
    "lng": 128.4556648292683
  },
  {
    "name": "경북포항시",
    "code": "5020000",
    "lat": 36.0497599147,
    "lng": 129.363043022
  },
  {
    "name": "광주광산구",
    "code": "3630000",
    "lat": 35.171494735,
    "lng": 126.80604357700003
  },
  {
    "name": "광주남구",
    "code": "3610000",
    "lat": 35.1088769776,
    "lng": 126.87716481900001
  },
  {
    "name": "광주동구",
    "code": "3590000",
    "lat": 35.14315998422682,
    "lng": 126.92676573608246
  },
  {
    "name": "광주북구",
    "code": "3620000",
    "lat": 35.186407319900006,
    "lng": 126.904923147
  },
  {
    "name": "광주서구",
    "code": "3600000",
    "lat": 35.14273120560001,
    "lng": 126.886626872
  },
  {
    "name": "대구군위군",
    "code": "5141000",
    "lat": 36.17964136842105,
    "lng": 128.63962178947372
  },
  {
    "name": "대구남구",
    "code": "3440000",
    "lat": 35.830649270699986,
    "lng": 128.57076827999998
  },
  {
    "name": "대구달서구",
    "code": "3470000",
    "lat": 35.805806391900006,
    "lng": 128.528481316
  },
  {
    "name": "대구달성군",
    "code": "3480000",
    "lat": 35.769532033913045,
    "lng": 128.4660464594203
  },
  {
    "name": "대구동구",
    "code": "3420000",
    "lat": 35.88967462,
    "lng": 128.66541150425525
  },
  {
    "name": "대구북구",
    "code": "3450000",
    "lat": 35.909339758599984,
    "lng": 128.582420148
  },
  {
    "name": "대구서구",
    "code": "3430000",
    "lat": 35.87244566780001,
    "lng": 128.55845816000001
  },
  {
    "name": "대구수성구",
    "code": "3460000",
    "lat": 35.84613766415094,
    "lng": 128.63971711132078
  },
  {
    "name": "대구중구",
    "code": "3410000",
    "lat": 35.866819607843134,
    "lng": 128.59272352941176
  },
  {
    "name": "대전대덕구",
    "code": "3680000",
    "lat": 36.39686799409998,
    "lng": 127.425422251
  },
  {
    "name": "대전동구",
    "code": "3640000",
    "lat": 36.32375667508772,
    "lng": 127.44767668421056
  },
  {
    "name": "대전서구",
    "code": "3660000",
    "lat": 36.341270030000004,
    "lng": 127.38004646999998
  },
  {
    "name": "대전유성구",
    "code": "3670000",
    "lat": 36.373201118699996,
    "lng": 127.34728099999998
  },
  {
    "name": "대전중구",
    "code": "3650000",
    "lat": 36.31874874000001,
    "lng": 127.41184783800007
  },
  {
    "name": "부산강서구",
    "code": "3360000",
    "lat": 35.125156,
    "lng": 128.89777700000002
  },
  {
    "name": "부산금정구",
    "code": "3350000",
    "lat": 35.24252060600001,
    "lng": 129.09174306999995
  },
  {
    "name": "부산기장군",
    "code": "3400000",
    "lat": 35.28900795903226,
    "lng": 129.2072643451613
  },
  {
    "name": "부산남구",
    "code": "3310000",
    "lat": 35.12737304909999,
    "lng": 129.095350295
  },
  {
    "name": "부산동구",
    "code": "3270000",
    "lat": 35.13234772899998,
    "lng": 129.04727998999996
  },
  {
    "name": "부산동래구",
    "code": "3300000",
    "lat": 35.203425671400005,
    "lng": 129.08313346899996
  },
  {
    "name": "부산부산진구",
    "code": "3290000",
    "lat": 35.15993113010001,
    "lng": 129.05013346699997
  },
  {
    "name": "부산북구",
    "code": "3320000",
    "lat": 35.22518681000001,
    "lng": 129.0163103300001
  },
  {
    "name": "부산사상구",
    "code": "3390000",
    "lat": 35.160161222399985,
    "lng": 128.989499479
  },
  {
    "name": "부산사하구",
    "code": "3340000",
    "lat": 35.08679879999997,
    "lng": 128.9845822
  },
  {
    "name": "부산서구",
    "code": "3260000",
    "lat": 35.097178788229165,
    "lng": 129.0183968270833
  },
  {
    "name": "부산수영구",
    "code": "3380000",
    "lat": 35.15349709999999,
    "lng": 129.11339467000005
  },
  {
    "name": "부산연제구",
    "code": "3370000",
    "lat": 35.18486569777777,
    "lng": 129.07661693555548
  },
  {
    "name": "부산영도구",
    "code": "3280000",
    "lat": 35.12968872120002,
    "lng": 129.00936016000003
  },
  {
    "name": "부산중구",
    "code": "3250000",
    "lat": 35.10473918048558,
    "lng": 129.03107479566705
  },
  {
    "name": "부산해운대구",
    "code": "3330000",
    "lat": 35.17628119610006,
    "lng": 129.1649017570002
  },
  {
    "name": "서울강남구",
    "code": "3220000",
    "lat": 37.50249115999999,
    "lng": 127.05586152000004
  },
  {
    "name": "서울강동구",
    "code": "3240000",
    "lat": 37.54349348999999,
    "lng": 127.14279461999999
  },
  {
    "name": "서울강북구",
    "code": "3080000",
    "lat": 37.629138703199985,
    "lng": 127.03333053100005
  },
  {
    "name": "서울강서구",
    "code": "3150000",
    "lat": 37.55760451999999,
    "lng": 126.83898902000001
  },
  {
    "name": "서울관악구",
    "code": "3200000",
    "lat": 37.47965382999999,
    "lng": 126.94594573000019
  },
  {
    "name": "서울광진구",
    "code": "3040000",
    "lat": 37.539250656000014,
    "lng": 127.07830599200004
  },
  {
    "name": "서울구로구",
    "code": "3160000",
    "lat": 37.4956299,
    "lng": 126.87602439999993
  },
  {
    "name": "서울금천구",
    "code": "3170000",
    "lat": 37.464838132599986,
    "lng": 126.894722436
  },
  {
    "name": "서울노원구",
    "code": "3100000",
    "lat": 37.65108240000002,
    "lng": 127.06954599999997
  },
  {
    "name": "서울도봉구",
    "code": "3090000",
    "lat": 37.6794985506,
    "lng": 127.04359581200009
  },
  {
    "name": "서울동대문구",
    "code": "3050000",
    "lat": 37.57553419399999,
    "lng": 127.04219179600001
  },
  {
    "name": "서울동작구",
    "code": "3190000",
    "lat": 37.502248000000016,
    "lng": 126.94791900000001
  },
  {
    "name": "서울마포구",
    "code": "3130000",
    "lat": 37.555843012000004,
    "lng": 126.914553232
  },
  {
    "name": "서울서대문구",
    "code": "3120000",
    "lat": 37.57575164699998,
    "lng": 126.93562073799973
  },
  {
    "name": "서울서초구",
    "code": "3210000",
    "lat": 37.48480236619999,
    "lng": 127.01947016100002
  },
  {
    "name": "서울성동구",
    "code": "3030000",
    "lat": 37.552316794,
    "lng": 127.040644286
  },
  {
    "name": "서울성북구",
    "code": "3070000",
    "lat": 37.6029288,
    "lng": 127.02476319999998
  },
  {
    "name": "서울송파구",
    "code": "3230000",
    "lat": 37.494859999999974,
    "lng": 127.12967999999992
  },
  {
    "name": "서울양천구",
    "code": "3140000",
    "lat": 37.52581490000002,
    "lng": 126.86442461999995
  },
  {
    "name": "서울영등포구",
    "code": "3180000",
    "lat": 37.51455430500004,
    "lng": 126.89953470500001
  },
  {
    "name": "서울용산구",
    "code": "3020000",
    "lat": 37.53465310000003,
    "lng": 126.9775095180003
  },
  {
    "name": "서울은평구",
    "code": "3110000",
    "lat": 37.6178155416,
    "lng": 126.91996382100005
  },
  {
    "name": "서울종로구",
    "code": "3000000",
    "lat": 37.5847664199,
    "lng": 126.98537371299996
  },
  {
    "name": "서울중구",
    "code": "3010000",
    "lat": 37.56204372019997,
    "lng": 127.00156853199991
  },
  {
    "name": "서울중랑구",
    "code": "3060000",
    "lat": 37.609009203999975,
    "lng": 127.09460777900007
  },
  {
    "name": "울산남구",
    "code": "3700000",
    "lat": 35.532036447299994,
    "lng": 129.318308359
  },
  {
    "name": "울산동구",
    "code": "3710000",
    "lat": 35.50916486,
    "lng": 129.42547397000004
  },
  {
    "name": "울산북구",
    "code": "3720000",
    "lat": 35.60267491000001,
    "lng": 129.36161833000003
  },
  {
    "name": "울산울주군",
    "code": "3730000",
    "lat": 35.507083636734684,
    "lng": 129.2234940489795
  },
  {
    "name": "울산중구",
    "code": "3690000",
    "lat": 35.564861179999994,
    "lng": 129.32225075483876
  },
  {
    "name": "인천강화군",
    "code": "3570000",
    "lat": 37.723281001,
    "lng": 126.40171147999997
  },
  {
    "name": "인천계양구",
    "code": "3550000",
    "lat": 37.54431616,
    "lng": 126.73471196099996
  },
  {
    "name": "인천남동구",
    "code": "3530000",
    "lat": 37.42919585000001,
    "lng": 126.71738152
  },
  {
    "name": "인천동구",
    "code": "3500000",
    "lat": 37.47930842400001,
    "lng": 126.63986840800003
  },
  {
    "name": "인천미추홀구",
    "code": "3510500",
    "lat": 37.454616394900015,
    "lng": 126.66910175599998
  },
  {
    "name": "인천부평구",
    "code": "3540000",
    "lat": 37.49753372000001,
    "lng": 126.71758488999996
  },
  {
    "name": "인천서구",
    "code": "3560000",
    "lat": 37.593044369500014,
    "lng": 126.666680783
  },
  {
    "name": "인천연수구",
    "code": "3520000",
    "lat": 37.418192612799984,
    "lng": 126.67200885199995
  },
  {
    "name": "인천옹진군",
    "code": "3580000",
    "lat": 37.52611672450003,
    "lng": 125.69389616600004
  },
  {
    "name": "전남강진군",
    "code": "4920000",
    "lat": 34.61905330999999,
    "lng": 126.77255774999999
  },
  {
    "name": "전남고흥군",
    "code": "4880000",
    "lat": 34.58565600999999,
    "lng": 127.28695085999992
  },
  {
    "name": "전남곡성군",
    "code": "4860000",
    "lat": 35.26338559340001,
    "lng": 127.18672609300003
  },
  {
    "name": "전남광양시",
    "code": "4840000",
    "lat": 35.03021040000001,
    "lng": 127.6280779999999
  },
  {
    "name": "전남구례군",
    "code": "4870000",
    "lat": 35.22289171568627,
    "lng": 127.46347092549018
  },
  {
    "name": "전남나주시",
    "code": "4830000",
    "lat": 35.008308008,
    "lng": 126.72549512999998
  },
  {
    "name": "전남담양군",
    "code": "4850000",
    "lat": 35.32014397752808,
    "lng": 126.98607211235951
  },
  {
    "name": "전남목포시",
    "code": "4800000",
    "lat": 34.80249038,
    "lng": 126.40359588
  },
  {
    "name": "전남무안군",
    "code": "4950000",
    "lat": 34.97299824889999,
    "lng": 126.434523926
  },
  {
    "name": "전남보성군",
    "code": "4890000",
    "lat": 34.812154443222006,
    "lng": 127.19913006468003
  },
  {
    "name": "전남순천시",
    "code": "4820000",
    "lat": 34.9611947659,
    "lng": 127.47738222300002
  },
  {
    "name": "전남신안군",
    "code": "5010000",
    "lat": 34.8038874102564,
    "lng": 126.01658037179484
  },
  {
    "name": "전남여수시",
    "code": "4810000",
    "lat": 34.753687239,
    "lng": 127.67980861599999
  },
  {
    "name": "전남영광군",
    "code": "4970000",
    "lat": 35.292386997102,
    "lng": 126.41850867524597
  },
  {
    "name": "전남영암군",
    "code": "4940000",
    "lat": 34.79178713000001,
    "lng": 126.64416546862742
  },
  {
    "name": "전남완도군",
    "code": "4990000",
    "lat": 34.29351369600001,
    "lng": 126.77534421300003
  },
  {
    "name": "전남장성군",
    "code": "4980000",
    "lat": 35.317032779999984,
    "lng": 126.74815540999998
  },
  {
    "name": "전남장흥군",
    "code": "4910000",
    "lat": 34.638041312700004,
    "lng": 126.92383551
  },
  {
    "name": "전남진도군",
    "code": "5000000",
    "lat": 34.462567762944936,
    "lng": 126.26031663707832
  },
  {
    "name": "전남함평군",
    "code": "4960000",
    "lat": 35.09177400000001,
    "lng": 126.53213099999995
  },
  {
    "name": "전남해남군",
    "code": "4930000",
    "lat": 34.53718999999999,
    "lng": 126.53589999999997
  },
  {
    "name": "전남화순군",
    "code": "4900000",
    "lat": 35.027791914000005,
    "lng": 127.00364360799999
  },
  {
    "name": "전북고창군",
    "code": "4781000",
    "lat": 35.44338795630001,
    "lng": 126.63145479399998
  },
  {
    "name": "전북군산시",
    "code": "4671000",
    "lat": 35.9751257839,
    "lng": 126.70367712199997
  },
  {
    "name": "전북김제시",
    "code": "4711000",
    "lat": 35.80549619,
    "lng": 126.88777087000008
  },
  {
    "name": "전북남원시",
    "code": "4701000",
    "lat": 35.41859668000001,
    "lng": 127.41109885000003
  },
  {
    "name": "전북무주군",
    "code": "4741000",
    "lat": 35.973384640000006,
    "lng": 127.71850937499995
  },
  {
    "name": "전북부안군",
    "code": "4791000",
    "lat": 35.679472646590916,
    "lng": 126.64933573636362
  },
  {
    "name": "전북순창군",
    "code": "4771000",
    "lat": 35.39918444444444,
    "lng": 127.13126000000001
  },
  {
    "name": "전북완주군",
    "code": "4721000",
    "lat": 35.925483448099996,
    "lng": 127.18734596399997
  },
  {
    "name": "전북익산시",
    "code": "4681000",
    "lat": 35.977745350999996,
    "lng": 126.97176759299995
  },
  {
    "name": "전북임실군",
    "code": "4761000",
    "lat": 35.600322799729724,
    "lng": 127.25716372972973
  },
  {
    "name": "전북장수군",
    "code": "4751000",
    "lat": 35.6654316311,
    "lng": 127.536110755
  },
  {
    "name": "전북전주시",
    "code": "4641000",
    "lat": 35.8601650775,
    "lng": 127.135316865
  },
  {
    "name": "전북정읍시",
    "code": "4691000",
    "lat": 35.591071572,
    "lng": 126.87229978599999
  },
  {
    "name": "전북진안군",
    "code": "4731000",
    "lat": 35.82004108183675,
    "lng": 127.43849840816327
  },
  {
    "name": "제주서귀포시",
    "code": "6520000",
    "lat": 33.273965110000006,
    "lng": 126.54512411999998
  },
  {
    "name": "제주제주시",
    "code": "6510000",
    "lat": 33.48097507619901,
    "lng": 126.54524296137608
  },
  {
    "name": "충남계룡시",
    "code": "5580000",
    "lat": 36.27455698030009,
    "lng": 127.24081254200001
  },
  {
    "name": "충남공주시",
    "code": "4500000",
    "lat": 36.47023882599999,
    "lng": 127.09675550700007
  },
  {
    "name": "충남금산군",
    "code": "4550000",
    "lat": 36.10913699999999,
    "lng": 127.47434600000003
  },
  {
    "name": "충남논산시",
    "code": "4540000",
    "lat": 36.19819117000004,
    "lng": 127.10487980000015
  },
  {
    "name": "충남당진시",
    "code": "5680000",
    "lat": 36.895174225368436,
    "lng": 126.68269894947365
  },
  {
    "name": "충남보령시",
    "code": "4510000",
    "lat": 36.3325843034,
    "lng": 126.544762019
  },
  {
    "name": "충남부여군",
    "code": "4570000",
    "lat": 36.26498942229999,
    "lng": 126.88709090600003
  },
  {
    "name": "충남서산시",
    "code": "4530000",
    "lat": 36.795993270000004,
    "lng": 126.46258138000005
  },
  {
    "name": "충남서천군",
    "code": "4580000",
    "lat": 36.078531608695656,
    "lng": 126.69503039021744
  },
  {
    "name": "충남아산시",
    "code": "4520000",
    "lat": 36.79883921199998,
    "lng": 126.98959152500007
  },
  {
    "name": "충남예산군",
    "code": "4610000",
    "lat": 36.677200855,
    "lng": 126.78797955161289
  },
  {
    "name": "충남천안시",
    "code": "4490000",
    "lat": 36.800058239500004,
    "lng": 127.16337846
  },
  {
    "name": "충남청양군",
    "code": "4590000",
    "lat": 36.41685841629999,
    "lng": 126.82846079300009
  },
  {
    "name": "충남태안군",
    "code": "4620000",
    "lat": 36.727548375200016,
    "lng": 126.28639203799999
  },
  {
    "name": "충남홍성군",
    "code": "4600000",
    "lat": 36.57552238750001,
    "lng": 126.62242842199997
  },
  {
    "name": "충북괴산군",
    "code": "4460000",
    "lat": 36.7883576469,
    "lng": 127.80724009200001
  },
  {
    "name": "충북단양군",
    "code": "4480000",
    "lat": 36.99394258520002,
    "lng": 128.3622132819999
  },
  {
    "name": "충북보은군",
    "code": "4420000",
    "lat": 35,
    "lng": 128
  },
  {
    "name": "충북영동군",
    "code": "4440000",
    "lat": 36.17311346340001,
    "lng": 127.79940841799997
  },
  {
    "name": "충북옥천군",
    "code": "4430000",
    "lat": 36.297691100000016,
    "lng": 127.58175291000009
  },
  {
    "name": "충북음성군",
    "code": "4470000",
    "lat": 36.978724666769224,
    "lng": 127.60815977692305
  },
  {
    "name": "충북제천시",
    "code": "4400000",
    "lat": 37.134879981,
    "lng": 128.20287351899998
  },
  {
    "name": "충북증평군",
    "code": "5570000",
    "lat": 36.80932650099999,
    "lng": 127.56028663299998
  },
  {
    "name": "충북진천군",
    "code": "4450000",
    "lat": 36.934031684699995,
    "lng": 127.43048049899998
  },
  {
    "name": "충북청주시",
    "code": "5710000",
    "lat": 36.627707000202015,
    "lng": 127.46603181818169
  },
  {
    "name": "충북충주시",
    "code": "4390000",
    "lat": 36.971698060999984,
    "lng": 127.92864548299991
  }
]